---
- :name: Bike+ République
  :address: 117 Boulevard Richard Lenoir, Paris
  :latitude: 48.8652648
  :longitude: 2.3695729
- :name: Cycles Saint-Honoré
  :address: 156 Rue Saint-Honoré, Paris
  :latitude: 48.8620768
  :longitude: 2.3399792
- :name: Allo Vélo
  :address: 2 Rue Beauregard, Paris
  :latitude: 48.8691241
  :longitude: 2.3479075
- :name: En Selle Marcel
  :address: 40 Rue Tiquetonne, Paris
  :latitude: 48.8647705
  :longitude: 2.347662
- :name: Au Réparateur de Bicyclettes
  :address: 52 Boulevard de Sébastopol, Paris
  :latitude: 48.8627826
  :longitude: 2.3508185
- :name: BiCyCle Store
  :address: 17 Boulevard du Temple, Paris
  :latitude: 48.8642282
  :longitude: 2.3657992
- :name: L'hirondelle
  :address: Rue de Turbigo, Paris
  :latitude: 48.865393
  :longitude: 2.3558228
- :name: Paris Bike Tour
  :address: 13 Rue Brantôme, Paris
  :latitude: 48.8620555
  :longitude: 2.3527308
- :name: Preya Cycle
  :address: 23 Boulevard du Temple, Paris
  :latitude: 48.8647171
  :longitude: 2.3655071
- :name: Giant Store Notre-Dame
  :address: 1 Boulevard Henri IV, Paris
  :latitude: 48.850247
  :longitude: 2.359022
- :name: SoliCycle
  :address: Voie Georges Pompidou, Paris
  :latitude: 48.8463801
  :longitude: 2.2738981
- :name: Vintage Cycles
  :address: 73 Rue de Turbigo, Paris
  :latitude: 48.8663457
  :longitude: 2.3595554
- :name: Au Point Vélo Hollandais
  :address: 81 Boulevard Saint-Michel, Paris
  :latitude: 48.8456417
  :longitude: 2.3401248
- :name: La Bicyclette Électrique
  :address: 51 Rue Claude Bernard, Paris
  :latitude: 48.8404328
  :longitude: 2.3453929
- :name: Cycle Centre
  :address: 30 Rue Grégoire de Tours, Paris
  :latitude: 48.8524504
  :longitude: 2.3375818
- :name: Les Vélos Parisiens
  :address: 3 Rue de l’Abbé-Grégoire, Paris
  :latitude: 48.8496276
  :longitude: 2.3235461
- :name: Vélo Electro
  :address: 39 Rue Saint-Georges, Paris
  :latitude: 48.877264
  :longitude: 2.3371604
- :name: Bicycl'Art
  :address: 226 Rue La Fayette, Paris
  :latitude: 48.8820952
  :longitude: 2.3681079
- :name: Café-vélo La Chouette
  :address: 20 Rue du Château d'Eau, Paris
  :latitude: 48.8701432
  :longitude: 2.3603404
- :name: Chouette vélo de ville
  :address: 4 passage des Marais, Paris
  :latitude: 48.8718346
  :longitude: 2.361618
- :name: Cyclable
  :address: 50 Quai de Jemmapes, Paris
  :latitude: 48.8700017
  :longitude: 2.3668165
- :name: Cyclo Store
  :address: 177 Quai de Valmy, Paris
  :latitude: 48.879993
  :longitude: 2.3669159
- :name: Cyclo de Ville
  :address: 15 Rue d'Hauteville, Paris
  :latitude: 48.8724366
  :longitude: 2.350065
- :name: L'Aventure A Vélo
  :address: 155 Quai de Valmy, Paris
  :latitude: 48.878149
  :longitude: 2.3656573
- :name: Le Petit Boyauteur
  :address: 36 Rue de l’aqueduc, Paris
  :latitude: 48.8822115
  :longitude: 2.3637052
- :name: Vélobécane
  :address: 155 Quai de Valmy, Paris
  :latitude: 48.878149
  :longitude: 2.3656573
- :name: Béovélo
  :address: 17 Rue des Boulets, Paris
  :latitude: 48.8502531
  :longitude: 2.390684
- :name: Cycles Bogoss
  :address: 110 Rue de Montreuil, Paris
  :latitude: 48.8510772
  :longitude: 2.3977207
- :name: Cyclutile
  :address: Rue Sedaine, Paris
  :latitude: 48.8567709
  :longitude: 2.3742378
- :name: Franscoop
  :address: 47 Rue Servan, Paris
  :latitude: 48.8620126
  :longitude: 2.3822267
- :name: Les Petits Vélos de Maurice
  :address: 81 Boulevard Richard Lenoir, Paris
  :latitude: 48.8612414
  :longitude: 2.3721456
- :name: O’Véloville
  :address: 22 Boulevard Richard-Lenoir, Paris
  :latitude: 48.8558817
  :longitude: 2.370794
- :name: Paris Cycles Laurent
  :address: Rue Rampon, Paris
  :latitude: 48.866254
  :longitude: 2.3673345
- :name: Paris à Vélo, c’est Sympa
  :address: 22 Rue Alphonse Baudin, Paris
  :latitude: 48.8611107
  :longitude: 2.3702744
- :name: Rapid Vélos
  :address: 50 Rue Godefroy Cavaignac, Paris
  :latitude: 48.8569183
  :longitude: 2.3801214
- :name: SAC’ycle
  :address: 18 Rue Boulets, Paris
  :latitude: 48.8525808
  :longitude: 2.3887914
- :name: Belleville Lowrider
  :address: 23 Rue de Toul, Paris
  :latitude: 48.839295
  :longitude: 2.4025064
- :name: Bicloune
  :address: 65 Avenue Daumesnil, Paris
  :latitude: 48.8468906
  :longitude: 2.3765935
- :name: Café-Vélo Jour de Vélo
  :address: 41 Rue de Cîteaux, Paris
  :latitude: 48.849744
  :longitude: 2.3810939
- :name: Cyclable 12e
  :address: Boulevard Diderot, Paris
  :latitude: 48.8465347
  :longitude: 2.3796359
- :name: La Bicyclette
  :address: 5 Rue Crozatier, Paris
  :latitude: 48.8453593
  :longitude: 2.3826866
- :name: Vélo services
  :address: 25 Rue Crozatier, Paris
  :latitude: 48.8465724
  :longitude: 2.3817169
- :name: Buzibi
  :address: 67 Rue de Croulebarbe, Paris
  :latitude: 48.830978
  :longitude: 2.3487086
- :name: Cyclo Sport 34
  :address: 34 Rue Damesme, Paris
  :latitude: 48.8231947
  :longitude: 2.3553459
- :name: L'éco Vélo
  :address: 47 Rue de Domrémy, Paris
  :latitude: 48.8288756
  :longitude: 2.3704633
- :name: Mountain Biker
  :address: 14 Place de Rungis, Paris
  :latitude: 48.8224263
  :longitude: 2.3462665
- :name: Cyclable
  :address: 122 Boulevard Brune, Paris
  :latitude: 48.8237774
  :longitude: 2.3221983
- :name: Ecox
  :address: 136 Avenue du Maine, Paris
  :latitude: 48.8350876
  :longitude: 2.3236228
- :name: Innovbike
  :address: 105 Rue du Château, Paris
  :latitude: 48.8359056
  :longitude: 2.319297
- :name: Ok Ça Roule
  :address: 36 Rue Pernety, Paris
  :latitude: 48.8336491
  :longitude: 2.3187336
- :name: SoliCycle
  :address: 1 Rue Prévost-Paradol, Paris
  :latitude: 48.8260898
  :longitude: 2.3085435
- :name: Vélo & Oxygen Paris Montparnasse
  :address: 129 Avenue du Maine, Paris
  :latitude: 48.8351534
  :longitude: 2.3241316
- :name: Bike in Paris
  :address: 36 Boulevard Montparnasse, Paris
  :latitude: 48.8436574
  :longitude: 2.3249226
- :name: Culture Vélo Paris 15ème
  :address: Rue de la Croix Nivert, Paris
  :latitude: 48.8339842
  :longitude: 2.2900806
- :name: Cyclo Paris 15
  :address: 93 Avenue Félix Faure, Paris
  :latitude: 48.8393046
  :longitude: 2.2837007
- :name: Holland Bikes
  :address: 77 Boulevard Lefebvre, Paris
  :latitude: 48.8305645
  :longitude: 2.2940791
- :name: L'Hirondelle
  :address: 103 Rue Blomet, Paris
  :latitude: 48.84033
  :longitude: 2.2989822
- :name: Roulez Champions
  :address: 5 Rue Humblot, Paris
  :latitude: 48.8509999
  :longitude: 2.293295
- :name: l'Ère du vélo
  :address: 38 Rue Georges Pitard, Paris
  :latitude: 48.8339438
  :longitude: 2.3094456
- :name: Bicycland
  :address: 98 Avenue de Versailles, Paris
  :latitude: 48.8447618
  :longitude: 2.2708009
- :name: J.F. Scoot
  :address: 8 Rue du Buis, Paris
  :latitude: 48.8472823
  :longitude: 2.2677362
- :name: Klocycle
  :address: 104 Rue Lauriston, Paris
  :latitude: 48.8666081
  :longitude: 2.286896
- :name: Les Cyclistes Branchés
  :address: 47 avenue de Versailles, Paris
  :latitude: 48.8484693
  :longitude: 2.275034
- :name: Byke The Way
  :address: 113 Rue Legendre, Paris
  :latitude: 48.8889291
  :longitude: 2.3222301
- :name: Cyclable
  :address: 76 Avenue de Villiers, Paris
  :latitude: 48.884128
  :longitude: 2.3039334
- :name: Holland Bikes
  :address: 9 Avenue de Villiers, Paris
  :latitude: 48.8816525
  :longitude: 2.3141862
- :name: Holland Bikes 17ème
  :address: 9 avenue de Villiers, Paris
  :latitude: 48.8816525
  :longitude: 2.3141862
- :name: Kilomètre 0
  :address: 20 Rue des Acacias, Paris
  :latitude: 48.8764281
  :longitude: 2.2909037
- :name: La Recyclerie Sportive
  :address: 81 Boulevard Bessières, Paris
  :latitude: 48.8964169
  :longitude: 2.3196157
- :name: Urban Wheel
  :address: Rue Cardinet, Paris
  :latitude: 48.8909979
  :longitude: 2.3179268
- :name: SoliCycle
  :address: 4b Rue d'Oran, Paris
  :latitude: 48.8889912
  :longitude: 2.3542059
- :name: Villovelo Paris
  :address: 75 Rue Damrémont, Paris
  :latitude: 48.8930303
  :longitude: 2.3357913
- :name: Vélo 18 Vintage
  :address: 58 Rue du Ruisseau, Paris
  :latitude: 48.894402
  :longitude: 2.3406977
- :name: AICV
  :address: 38 bis Quai de la Marne, Paris
  :latitude: 48.8905275
  :longitude: 2.3845763
- :name: Cyclable
  :address: 68 Avenue Jean Jaurès, Paris
  :latitude: 48.8843661
  :longitude: 2.3768205
- :name: JP Cycles
  :address: 10 Rue des Chaufourniers, Paris
  :latitude: 48.8785259
  :longitude: 2.3722341
- :name: BMG Cycles
  :address: 10 Rue Sorbier, Paris
  :latitude: 48.8680712
  :longitude: 2.3899662
- :name: Cycles Delcayre
  :address: 1 Rue de la Plaine, Paris
  :latitude: 48.8498841
  :longitude: 2.3993671
- :name: Doc'velos
  :address: Rue Emmery, Paris
  :latitude: 48.8720323
  :longitude: 2.3919489
